{
"type": "FeatureCollection",
"name": "leb-protests",
"crs": { "type": "name", "properties": { "name": "urn:ogc:def:crs:OGC:1.3:CRS84" } },
"features": [
{ "type": "Feature", "properties": { "protest location": " كوشا ", "coordinates": "34.562685, 36.083174", "links": "https:\/\/twitter.com\/LBCI_NEWS\/status\/1185051023133564928?s=20", "field_4": null, "coordinates y": 34.562685, "coordinates x": 36.083174 }, "geometry": { "type": "Point", "coordinates": [ 36.083174, 34.562685 ] } },  
{ "type": "Feature", "properties": { "protest location": " كفر حزير ", "coordinates": "34.3083579,35.773755", "links": null, "field_4": null, "coordinates y": 34.3083579, "coordinates x": 35.773755 }, "geometry": { "type": "Point", "coordinates": [ 35.773755, 34.3083579 ] } },
{ "type": "Feature", "properties": { "protest location": "أبلح", "coordinates": "33.8668943,35.9506051", "links": null, "field_4": null, "coordinates y": 33.8668943, "coordinates x": 35.9506051 }, "geometry": { "type": "Point", "coordinates": [ 35.9506051, 33.8668943 ] } },
{ "type": "Feature", "properties": { "protest location": "أنطلياس", "coordinates": "33.914585,35.584655", "links": null, "field_4": null, "coordinates y": 33.914585, "coordinates x": 35.584655 }, "geometry": { "type": "Point", "coordinates": [ 35.584655, 33.914585 ] } },
{ "type": "Feature", "properties": { "protest location": "ابلح", "coordinates": "33.873446,35.965307", "links": null, "field_4": null, "coordinates y": 33.873446, "coordinates x": 35.965307 }, "geometry": { "type": "Point", "coordinates": [ 35.965307, 33.873446 ] } },
{ "type": "Feature", "properties": { "protest location": "الجية", "coordinates": "33.6702394,35.4234095", "links": "https:\/\/twitter.com\/lbci_news\/status\/1184963304621531137?s=21", "field_4": null, "coordinates y": 33.6702394, "coordinates x": 35.4234095 }, "geometry": { "type": "Point", "coordinates": [ 35.4234095, 33.6702394 ] } },
{ "type": "Feature", "properties": { "protest location": "الدكوانة", "coordinates": "33.879347,35.546267", "links": null, "field_4": null, "coordinates y": 33.879347, "coordinates x": 35.546267 }, "geometry": { "type": "Point", "coordinates": [ 35.546267, 33.879347 ] } },
{ "type": "Feature", "properties": { "protest location": "الدورة", "coordinates": "33.893839,35.5419023", "links": "https:\/\/www.lbcgroup.tv\/news\/d\/%D8%A7%D9%85%D9%86-%D9%88%D9%82%D8%B6%D8%A7%D8%A1\/476738\/%D8%A7%D9%84%D9%88%D9%83%D8%A7%D9%84%D8%A9-%D8%A7%D9%84%D9%88%D8%B7%D9%86%D9%8A%D8%A9-%D9%82%D8%B7%D8%B9-%D8%B7%D8%B1%D9%8A%D9%82-%D8%A7%D9%84%D8%AF%D9%88%D8%B1%D8%A9-%D8%A8%D8%A7%D9%84%D9%83%D8%A7%D9%85%D9%84-%D8%A8%D8%A7%D9%84%D8%A7%D8%AA%D8%AC%D8%A7%D9%87%D9%8A%D9%86\/ar", "field_4": null, "coordinates y": 33.893839, "coordinates x": 35.5419023 }, "geometry": { "type": "Point", "coordinates": [ 35.5419023, 33.893839 ] } },
{ "type": "Feature", "properties": { "protest location": "الرينغ", "coordinates": "33.8925087,35.5046656", "links": "https:\/\/www.elnashra.com\/news\/show\/1356520\/%D9%82%D8%B7%D8%B9-%D8%A7%D9%84%D8%B7%D8%B1%D9%8A%D9%82-%D8%B9%D9%86%D8%AF-%D8%AC%D8%B3%D8%B1-%D8%A7%D9%84%D8%B1%D9%8A%D9%86%D8%BA-%D9%88%D8%B3%D8%B7-%D8%A8%D9%8A%D8%B1%D9%88%D8%AA-%D9%82%D8%A8%D9%84-%D8%A8%D8%B9%D8%B6-%D8%A7%D9%84%D9%85%D8%AD%D8%AA%D8%AC", "field_4": null, "coordinates y": 33.8925087, "coordinates x": 35.5046656 }, "geometry": { "type": "Point", "coordinates": [ 35.5046656, 33.8925087 ] } },
{ "type": "Feature", "properties": { "protest location": "الشياح", "coordinates": "33.8647552,35.5081653", "links": "https:\/\/twitter.com\/Sobhiyanajjar\/status\/1184913759720148992", "field_4": null, "coordinates y": 33.8647552, "coordinates x": 35.5081653 }, "geometry": { "type": "Point", "coordinates": [ 35.5081653, 33.8647552 ] } },
{ "type": "Feature", "properties": { "protest location": "الفرزل", "coordinates": "33.873731,35.943824", "links": null, "field_4": null, "coordinates y": null, "coordinates x": null }, "geometry": null },
{ "type": "Feature", "properties": { "protest location": "المصنع", "coordinates": "33.702144,35.921393", "links": "https:\/\/www.lbcgroup.tv\/news\/d\/%D8%A7%D9%85%D9%86-%D9%88%D9%82%D8%B6%D8%A7%D8%A1\/476620\/%D9%82%D8%B7%D8%B9-%D8%B7%D8%B1%D9%8A%D9%82-%D8%A7%D9%84%D9%85%D8%B5%D9%86%D8%B9-%D8%A8%D8%A7%D9%84%D8%A7%D8%AA%D8%AC%D8%A7%D9%87%D9%8A%D9%86-%D8%B9%D9%86%D8%AF-%D9%85%D9%81%D8%B1%D9%82-%D8%B1%D8%A7%D8%B4%D9%8A%D8%A7\/ar", "field_4": null, "coordinates y": 33.702144, "coordinates x": 35.921393 }, "geometry": { "type": "Point", "coordinates": [ 35.921393, 33.702144 ] } },
{ "type": "Feature", "properties": { "protest location": "الهرمل", "coordinates": null, "links": "https:\/\/twitter.com\/BelalAyoubi\/status\/1184993817239404544?s=20", "field_4": null, "coordinates y": 34.396813, "coordinates x": 36.385253 }, "geometry": { "type": "Point", "coordinates": [ 36.385253, 34.396813 ] } },
{ "type": "Feature", "properties": { "protest location": "النبطية", "coordinates": "33.364253,35.491964", "links": "https:\/\/www.lbcgroup.tv\/news\/d\/%D8%A7%D9%85%D9%86-%D9%88%D9%82%D8%B6%D8%A7%D8%A1\/476701\/%D8%AA%D9%83%D8%B3%D9%8A%D8%B1-%D9%8A%D8%A7%D9%81%D8%B7%D8%A9-%D9%88%D8%A7%D8%B6%D8%B1%D8%A7%D9%85-%D9%86%D8%A7%D8%B1-%D8%A7%D9%85%D8%A7%D9%85-%D9%85%D9%83%D8%AA%D8%A8-%D8%A7%D9%84%D9%86%D8%A7%D8%A6%D8%A8-%D9%85%D8%AD%D9%85%D8%AF-%D8%B1%D8%B9%D8%AF-%D9%81\/ar", "field_4": null, "coordinates y": 33.364253, "coordinates x": 35.491964 }, "geometry": { "type": "Point", "coordinates": [ 35.491964, 33.364253 ] } },
{ "type": "Feature", "properties": { "protest location": "اميون", "coordinates": "34.29782,35.797705", "links": null, "field_4": null, "coordinates y": null, "coordinates x": null }, "geometry": null },
{ "type": "Feature", "properties": { "protest location": "بترون", "coordinates": "34.255325,35.659069", "links": "https:\/\/www.lebanon24.com\/news\/lebanon\/636226\/%D9%82%D8%B7%D8%B9-%D8%A7%D9%88%D8%AA%D9%88%D8%B3%D8%AA%D8%B1%D8%A7%D8%AF-%D8%A7%D9%84%D8%A8%D8%AA%D8%B1%D9%88%D9%86-%D8%A8%D8%A7%D9%84%D8%A7%D8%B7%D8%A7%D8%B1%D8%A7%D8%AA-%D8%A7%D9%84%D9%85%D8%B4%D8%AA%D8%B9%D9%84%D8%A9", "field_4": null, "coordinates y": 34.255325, "coordinates x": 35.659069 }, "geometry": { "type": "Point", "coordinates": [ 35.659069, 34.255325 ] } },
{ "type": "Feature", "properties": { "protest location": "بحمدون", "coordinates": "33.8088421,35.658729,", "links": "https:\/\/www.facebook.com\/alaasayeg\/posts\/10157679050915120", "field_4": null, "coordinates y": 33.8088421, "coordinates x": 35.658729 }, "geometry": { "type": "Point", "coordinates": [ 35.658729, 33.8088421 ] } },
{ "type": "Feature", "properties": { "protest location": "الصالومي", "coordinates": "33.893847,35.541847", "links": "https:\/\/twitter.com\/BelalAyoubi\/status\/1184995156304506881?s=20", "field_4": null, "coordinates y": 33.893847, "coordinates x": 35.541847 }, "geometry": { "type": "Point", "coordinates": [ 35.541847, 33.893847 ] } },
{ "type": "Feature", "properties": { "protest location": "بريتال", "coordinates": "33.934284,36.150995", "links": "https:\/\/www.annahar.com\/article\/1051626-%D9%88%D8%AA%D9%8A%D8%B1%D8%A9-%D8%A7%D9%84%D8%A7%D8%AD%D8%AA%D8%AC%D8%A7%D8%AC%D8%A7%D8%AA-%D8%AA%D8%AA%D8%B3%D8%A7%D8%B1%D8%B9-%D8%A8%D9%82%D8%A7%D8%B9%D8%A7-%D8%B7%D8%B1%D9%82-%D9%85%D9%82%D8%B7%D9%88%D8%B9%D8%A9-%D9%88%D8%B2%D9%8A%D8%A7%D8%AF%D8%A9-%D8%A3%D8%B9%D8%AF%D8%A7%D8%AF-%D8%A7%D9%84%D8%B5%D8%A7%D8%B1%D8%AE%D9%8A%D9%86", "field_4": null, "coordinates y": 33.934284, "coordinates x": 36.150995 }, "geometry": { "type": "Point", "coordinates": [ 36.150995, 33.934284 ] } },
{ "type": "Feature", "properties": { "protest location": "بعلبك", "coordinates": "34.005608,36.208921", "links": "https:\/\/www.facebook.com\/Lebanon.ne\/videos\/514849269298183\/", "field_4": null, "coordinates y": 34.005608, "coordinates x": 36.208921 }, "geometry": { "type": "Point", "coordinates": [ 36.208921, 34.005608 ] } },
{ "type": "Feature", "properties": { "protest location": "تعلبايا", "coordinates": "33.8169583,35.8635568", "links": "https:\/\/www.aljadeed.tv\/arabic\/news\/local\/17102019126", "field_4": null, "coordinates y": 33.8169583, "coordinates x": 35.8635568 }, "geometry": { "type": "Point", "coordinates": [ 35.8635568, 33.8169583 ] } },
{ "type": "Feature", "properties": { "protest location": "جب جنين", "coordinates": "33.626623,35.783633", "links": null, "field_4": null, "coordinates y": 33.626623, "coordinates x": 35.783633 }, "geometry": { "type": "Point", "coordinates": [ 35.783633, 33.626623 ] } },
{ "type": "Feature", "properties": { "protest location": "جبل محسن", "coordinates": "34.442849,35.857195", "links": null, "field_4": null, "coordinates y": 34.442849, "coordinates x": 35.857195 }, "geometry": { "type": "Point", "coordinates": [ 35.857195, 34.442849 ] } },
{ "type": "Feature", "properties": { "protest location": "جبيل", "coordinates": "34.121477,35.647025", "links": "https:\/\/twitter.com\/nellyghossein1\/status\/1184950335225417729?s=20", "field_4": null, "coordinates y": 34.121477, "coordinates x": 35.647025 }, "geometry": { "type": "Point", "coordinates": [ 35.647025, 34.121477 ] } },
{ "type": "Feature", "properties": { "protest location": "جعيتا", "coordinates": null, "links": "https:\/\/www.lbcgroup.tv\/news\/d\/%D8%A3%D8%AE%D8%A8%D8%A7%D8%B1-%D8%B3%D9%8A%D8%A7%D8%B3%D9%8A%D8%A9\/476702\/%D9%82%D8%B7%D8%B9-%D8%A7%D9%88%D8%AA%D9%88%D8%B3%D8%AA%D8%B1%D8%A7%D8%AF-%D8%AC%D8%B9%D9%8A%D8%AA%D8%A7-%D8%A8%D8%A7%D9%84%D8%A7%D8%B7%D8%A7%D8%B1%D8%A7%D8%AA-%D8%A7%D9%84%D9%85%D8%B4%D8%AA%D8%B9%D9%84%D8%A9-%D8%B5%D9%88%D8%B1%D8%A9\/ar", "field_4": null, "coordinates y": null, "coordinates x": null }, "geometry": null },
{ "type": "Feature", "properties": { "protest location": "جل الديب", "coordinates": "33.9088448,35.5732345", "links": null, "field_4": null, "coordinates y": 33.9088448, "coordinates x": 35.5732345 }, "geometry": { "type": "Point", "coordinates": [ 35.5732345, 33.9088448 ] } },
{ "type": "Feature", "properties": { "protest location": "جونيه", "coordinates": "33.986408,35.636782", "links": "https:\/\/www.facebook.com\/alichalhoubchanteur\/videos\/2460767330637529\/?q=%D9%82%D8%B7%D8%B9%20%D8%B7%D8%B1%D9%8A%D9%82%20%D8%AC%D9%88%D9%86%D9%8A%D8%A9&epa=SEARCH_BOX", "field_4": null, "coordinates y": null, "coordinates x": null }, "geometry": null },
{ "type": "Feature", "properties": { "protest location": "حارة الناعمة", "coordinates": "33.7390996,35.4551808", "links": null, "field_4": null, "coordinates y": 33.7390996, "coordinates x": 35.4551808 }, "geometry": { "type": "Point", "coordinates": [ 35.4551808, 33.7390996 ] } },
{ "type": "Feature", "properties": { "protest location": "خلدة", "coordinates": "33.772877,35.470237", "links": null, "field_4": null, "coordinates y": 33.772877, "coordinates x": 35.470237 }, "geometry": { "type": "Point", "coordinates": [ 35.470237, 33.772877 ] } },
{ "type": "Feature", "properties": { "protest location": "دوريس", "coordinates": "33.9910829,36.163814", "links": "https:\/\/twitter.com\/BelalAyoubi\/status\/1184992502371237889?s=20", "field_4": null, "coordinates y": 33.9910829, "coordinates x": 36.163814 }, "geometry": { "type": "Point", "coordinates": [ 36.163814, 33.9910829 ] } },
{ "type": "Feature", "properties": { "protest location": "رياق", "coordinates": "33.847449,36.0128065", "links": "https:\/\/www.aljadeed.tv\/arabic\/news\/local\/17102019187", "field_4": null, "coordinates y": 33.847449, "coordinates x": 36.0128065 }, "geometry": { "type": "Point", "coordinates": [ 36.0128065, 33.847449 ] } },
{ "type": "Feature", "properties": { "protest location": "زغرتا", "coordinates": "34.396015,35.89562", "links": null, "field_4": null, "coordinates y": 34.396015, "coordinates x": 35.89562 }, "geometry": { "type": "Point", "coordinates": [ 35.89562, 34.396015 ] } },
{ "type": "Feature", "properties": { "protest location": "ساحة إيليا صيدا", "coordinates": "33.5647398,35.3726959", "links": "https:\/\/twitter.com\/aemasri\/status\/1184947765345968130", "field_4": null, "coordinates y": 33.5647398, "coordinates x": 35.3726959 }, "geometry": { "type": "Point", "coordinates": [ 35.3726959, 33.5647398 ] } },
{ "type": "Feature", "properties": { "protest location": "سليم سلام", "coordinates": "33.8811491,35.495831", "links": null, "field_4": null, "coordinates y": 33.8811491, "coordinates x": 35.495831 }, "geometry": { "type": "Point", "coordinates": [ 35.495831, 33.8811491 ] } },
{ "type": "Feature", "properties": { "protest location": "سن الفيل", "coordinates": "33.876962,35.53505", "links": null, "field_4": null, "coordinates y": 33.876962, "coordinates x": 35.53505 }, "geometry": { "type": "Point", "coordinates": [ 35.53505, 33.876962 ] } },
{ "type": "Feature", "properties": { "protest location": "شاتيلا", "coordinates": "33.8673287,35.505867", "links": null, "field_4": null, "coordinates y": 33.8673287, "coordinates x": 35.505867 }, "geometry": { "type": "Point", "coordinates": [ 35.505867, 33.8673287 ] } },
{ "type": "Feature", "properties": { "protest location": "شتورة", "coordinates": "33.8155938,35.8534461", "links": "http:\/\/mubasher.aljazeera.net\/news\/%D9%87%D8%AA%D8%A7%D9%81%D8%A7%D8%AA-%D8%A8%D8%A5%D8%B3%D9%82%D8%A7%D8%B7-%D8%A7%D9%84%D9%86%D8%B8%D8%A7%D9%85-%D8%A7%D8%AD%D8%AA%D8%AC%D8%A7%D8%AC%D8%A7%D8%AA-%D9%81%D9%8A-%D9%85%D8%AF%D9%86-%D9%84%D8%A8%D9%86%D8%A7%D9%86%D9%8A%D8%A9-%D8%B1%D9%81%D8%B6%D8%A7-%D9%84%D8%B6%D8%B1%D8%A7%D8%A6%D8%A8-%D8%AC%D8%AF%D9%8A%D8%AF%D8%A9-%D9%81%D9%8A%D8%AF%D9%8A%D9%88", "field_4": null, "coordinates y": 33.8155938, "coordinates x": 35.8534461 }, "geometry": { "type": "Point", "coordinates": [ 35.8534461, 33.8155938 ] } },
{ "type": "Feature", "properties": { "protest location": "شكا", "coordinates": "34.330343,35.728722", "links": null, "field_4": null, "coordinates y": null, "coordinates x": null }, "geometry": null },
{ "type": "Feature", "properties": { "protest location": "صور", "coordinates": "33.2696967,35.2018619", "links": "https:\/\/twitter.com\/AmalKhalil83\/status\/1184939523802882049", "field_4": null, "coordinates y": 33.2696967, "coordinates x": 35.2018619 }, "geometry": { "type": "Point", "coordinates": [ 35.2018619, 33.2696967 ] } },
{ "type": "Feature", "properties": { "protest location": "صوفر", "coordinates": "33.8031086,35.6932242", "links": "https:\/\/www.elnashra.com\/news\/show\/1356571\/%D8%A7%D9%84%D9%86%D8%B4%D8%B1%D8%A9-%D9%82%D8%B7%D8%B9-%D8%B7%D8%B1%D9%82%D8%A7%D8%AA-%D8%B5%D9%88%D9%81%D8%B1-%D9%88%D8%B3%D8%A7%D8%AD%D8%AA%D9%87%D8%A7-%D9%88%D8%A3%D9%88%D8%AA%D9%88%D8%B3%D8%AA%D8%B1%D8%A7%D8%AF-%D8%A8%D8%AD%D9%85%D8%AF%D9%88%D9%86-%D8%A7%D8%AD", "field_4": null, "coordinates y": 33.8031086, "coordinates x": 35.6932242 }, "geometry": { "type": "Point", "coordinates": [ 35.6932242, 33.8031086 ] } },
{ "type": "Feature", "properties": { "protest location": "ضبيّة", "coordinates": "33.934762,35.589449", "links": null, "field_4": null, "coordinates y": 33.934762, "coordinates x": 35.589449 }, "geometry": { "type": "Point", "coordinates": [ 35.589449, 33.934762 ] } },
{ "type": "Feature", "properties": { "protest location": "طرابلس ساحة النور", "coordinates": "34.437708,35.83686", "links": "https:\/\/twitter.com\/BelalAyoubi\/status\/1184992033410310144?s=20", "field_4": null, "coordinates y": 34.437708, "coordinates x": 35.83686 }, "geometry": { "type": "Point", "coordinates": [ 35.83686, 34.437708 ] } },
{ "type": "Feature", "properties": { "protest location": "طريق الجديدة", "coordinates": "33.8704756,35.4964821", "links": null, "field_4": null, "coordinates y": 33.8704756, "coordinates x": 35.4964821 }, "geometry": { "type": "Point", "coordinates": [ 35.4964821, 33.8704756 ] } },
{ "type": "Feature", "properties": { "protest location": "طريق المطار", "coordinates": "33.8396486,35.4967809", "links": "https:\/\/www.lbcgroup.tv\/news\/%D8%A7%D9%85%D9%86-%D9%88%D9%82%D8%B6%D8%A7%D8%A1\/476635\/%D9%82%D8%B7%D8%B9-%D8%B7%D8%B1%D9%8A%D9%82-%D8%A7%D9%84%D9%85%D8%B7%D8%A7%D8%B1-%D8%A7%D9%84%D9%82%D8%AF%D9%8A%D9%85%D8%A9-%D8%A8%D8%A7%D9%84%D8%A7%D8%AA%D8%AC%D8%A7%D9%87%D9%8A%D9%86-%D8%A8%D8%A7%D9%84%D8%A7%D8%B7%D8%A7%D8%B1%D8%A7%D8%AA-%D8%A7%D9%84%D9%85%D8%B4%D8%AA\/ar", "field_4": null, "coordinates y": 33.8396486, "coordinates x": 35.4967809 }, "geometry": { "type": "Point", "coordinates": [ 35.4967809, 33.8396486 ] } },
{ "type": "Feature", "properties": { "protest location": "عاريا", "coordinates": "33.8292956,35.5923071", "links": null, "field_4": null, "coordinates y": 33.8292956, "coordinates x": 35.5923071 }, "geometry": { "type": "Point", "coordinates": [ 35.5923071, 33.8292956 ] } },
{ "type": "Feature", "properties": { "protest location": "فؤاد شهاب", "coordinates": "33.8728316,35.5413081", "links": null, "field_4": null, "coordinates y": 33.8728316, "coordinates x": 35.5413081 }, "geometry": { "type": "Point", "coordinates": [ 35.5413081, 33.8728316 ] } },
{ "type": "Feature", "properties": { "protest location": "فرن الشبّاك", "coordinates": "33.8732935,35.5162212", "links": "https:\/\/www.almarkazia.com\/ar\/news\/show\/160433\/%D9%82%D8%B7%D8%B9-%D8%B7%D8%B1%D9%8A%D9%82-%D9%81%D8%B1%D9%86-%D8%A7%D9%84%D8%B4%D8%A8%D8%A7%D9%83-%D8%A8%D8%A7%D9%84%D8%A7%D8%B7%D8%A7%D8%B1%D8%A7%D8%AA-%D8%A7%D9%84%D9%85%D8%B4%D8%AA%D8%B9%D9%84%D8%A9", "field_4": null, "coordinates y": 33.8732935, "coordinates x": 35.5162212 }, "geometry": { "type": "Point", "coordinates": [ 35.5162212, 33.8732935 ] } },
{ "type": "Feature", "properties": { "protest location": "كسليك", "coordinates": "33.9831061,35.6093021", "links": null, "field_4": null, "coordinates y": 33.9831061, "coordinates x": 35.6093021 }, "geometry": { "type": "Point", "coordinates": [ 35.6093021, 33.9831061 ] } },
{ "type": "Feature", "properties": { "protest location": "مزرعة يشوع", "coordinates": null, "links": "https:\/\/www.lbcgroup.tv\/news\/d\/%D8%A3%D8%AE%D8%A8%D8%A7%D8%B1-%D8%B3%D9%8A%D8%A7%D8%B3%D9%8A%D8%A9\/476707\/%D9%82%D8%B7%D8%B9-%D8%B7%D8%B1%D9%8A%D9%82-%D9%85%D8%B2%D8%B1%D8%B9%D8%A9-%D9%8A%D8%B4%D9%88%D8%B9-%D8%A8%D8%A7%D9%84%D8%A7%D8%AA%D8%AC%D8%A7%D9%87%D9%8A%D9%86-%D8%A8%D8%A7%D9%84%D8%A7%D8%B7%D8%A7%D8%B1%D8%A7%D8%AA-%D8%A7%D9%84%D9%85%D8%B4%D8%AA%D8%B9%D9%84%D8%A9\/ar", "field_4": null, "coordinates y": null, "coordinates x": null }, "geometry": null }
]
}
